{
"type": "FeatureCollection",
"name": "BourbonTrailDistilleries",
"crs": { "type": "name", "properties": { "name": "urn:ogc:def:crs:OGC:1.3:CRS84" } },
"features": [
{ "type": "Feature", "properties": { "Name": "Angel's Envy Distillery", "Address": "500 E Main St", "City": "Louisville", "State": "KY", "Type": "Primary", "Longitude": -86.992581, "Latitude": 35.80007 }, "geometry": { "type": "Point", "coordinates": [ -85.758367339236912, 38.256665396424097 ] } },
{ "type": "Feature", "properties": { "Name": "Bardstown Bourbon Company", "Address": "1500 Parkway Dr", "City": "Bardstown", "State": "KY", "Type": "Primary", "Longitude": -85.5316188, "Latitude": 37.8459176 }, "geometry": { "type": "Point", "coordinates": [ -85.5316188, 37.8459176 ] } },
{ "type": "Feature", "properties": { "Name": "Bulleit Distilling Co.", "Address": "3900 Benson Pike", "City": "Shelbyville", "State": "KY", "Type": "Primary", "Longitude": -85.1392736, "Latitude": 38.2228408 }, "geometry": { "type": "Point", "coordinates": [ -85.1392736, 38.2228408 ] } },
{ "type": "Feature", "properties": { "Name": "Bulleit Frontier Experience at the Stitzel–Weller Distillery", "Address": "3860 Fitzgerald Rd", "City": "Louisville", "State": "KY", "Type": "Primary", "Longitude": -85.8110037, "Latitude": 38.2097053 }, "geometry": { "type": "Point", "coordinates": [ -85.8110037, 38.2097053 ] } },
{ "type": "Feature", "properties": { "Name": "Evan Williams Bourbon Experience", "Address": "528 W Mail St", "City": "Louisville", "State": "KY", "Type": "Primary", "Longitude": -85.7594567, "Latitude": 38.2567817 }, "geometry": { "type": "Point", "coordinates": [ -85.7594567, 38.2567817 ] } },
{ "type": "Feature", "properties": { "Name": "Four Roses Distillery", "Address": "1224 Bonds Mill Rd", "City": "Lawrenceburg", "State": "KY", "Type": "Primary", "Longitude": -84.89975, "Latitude": 37.9734293 }, "geometry": { "type": "Point", "coordinates": [ -84.89975, 37.9734293 ] } },
{ "type": "Feature", "properties": { "Name": "Green River Distilling Company", "Address": "10 Distillery Rd", "City": "Owensboro", "State": "KY", "Type": "Primary", "Longitude": -86.9598172, "Latitude": 37.8388665 }, "geometry": { "type": "Point", "coordinates": [ -86.9598172, 37.8388665 ] } },
{ "type": "Feature", "properties": { "Name": "Heaven Hill Visitor Center", "Address": "1311 Gilkey Run Rd", "City": "Bardstown", "State": "KY", "Type": "Primary", "Longitude": -85.464166, "Latitude": 37.793613 }, "geometry": { "type": "Point", "coordinates": [ -85.464166, 37.793613 ] } },
{ "type": "Feature", "properties": { "Name": "Jim Beam American Stillhouse", "Address": "568 Happy Hollow Rd", "City": "Clermont", "State": "KY", "Type": "Primary", "Longitude": -85.653959, "Latitude": 37.930807 }, "geometry": { "type": "Point", "coordinates": [ -85.652858076381008, 37.933484662118218 ] } },
{ "type": "Feature", "properties": { "Name": "Jim Beam Urban Stillhouse", "Address": "404 S 4th St", "City": "Louisville", "State": "KY", "Type": "Primary", "Longitude": -85.759543, "Latitude": 38.2526744 }, "geometry": { "type": "Point", "coordinates": [ -85.759543, 38.2526744 ] } },
{ "type": "Feature", "properties": { "Name": "Lux Row Distillers", "Address": "3050 E John Rowan Blvd", "City": "Bardstown", "State": "KY", "Type": "Primary", "Longitude": -85.426576, "Latitude": 37.8080357 }, "geometry": { "type": "Point", "coordinates": [ -85.426576, 37.8080357 ] } },
{ "type": "Feature", "properties": { "Name": "Maker's Mark Distillery", "Address": "3350 Burks Spring Rd", "City": "Loretto", "State": "KY", "Type": "Primary", "Longitude": -85.35, "Latitude": 37.6476 }, "geometry": { "type": "Point", "coordinates": [ -85.35, 37.6476 ] } },
{ "type": "Feature", "properties": { "Name": "Michter’s Fort Nelson Distillery", "Address": "801 W Main St", "City": "Louisville", "State": "KY", "Type": "Primary", "Longitude": -85.7654451, "Latitude": 38.2576839 }, "geometry": { "type": "Point", "coordinates": [ -85.7654451, 38.2576839 ] } },
{ "type": "Feature", "properties": { "Name": "Old Forester Distilling Co.", "Address": "119 W Main St", "City": "Louisville", "State": "KY", "Type": "Primary", "Longitude": -85.7546039, "Latitude": 38.2563386 }, "geometry": { "type": "Point", "coordinates": [ -85.7546039, 38.2563386 ] } },
{ "type": "Feature", "properties": { "Name": "Rabbit Hole Distillery", "Address": "711 E Jefferson St", "City": "Louisville", "State": "KY", "Type": "Primary", "Longitude": -85.7416267, "Latitude": 38.2523282 }, "geometry": { "type": "Point", "coordinates": [ -85.7416267, 38.2523282 ] } },
{ "type": "Feature", "properties": { "Name": "Town Branch Distillery ", "Address": "401 Cross St", "City": "Lexington", "State": "KY", "Type": "Primary", "Longitude": -84.509606, "Latitude": 38.049711 }, "geometry": { "type": "Point", "coordinates": [ -84.509606, 38.049711 ] } },
{ "type": "Feature", "properties": { "Name": "Wild Turkey Distillery", "Address": "1417 Versailles Rd", "City": "Lawrenceburg", "State": "KY", "Type": "Primary", "Longitude": -84.849865, "Latitude": 38.038106 }, "geometry": { "type": "Point", "coordinates": [ -84.849865, 38.038106 ] } },
{ "type": "Feature", "properties": { "Name": "Woodford Reserve Distillery", "Address": "7785 McCracken Pike", "City": "Versailles", "State": "KY", "Type": "Primary", "Longitude": -84.812736, "Latitude": 38.112759 }, "geometry": { "type": "Point", "coordinates": [ -84.812736, 38.112759 ] } },
{ "type": "Feature", "properties": { "Name": "Barrel House Distillery", "Address": "1200 Manchester St", "City": "Lexington", "State": "KY", "Type": "Craft", "Longitude": -84.5211178, "Latitude": 38.0562791 }, "geometry": { "type": "Point", "coordinates": [ -84.5211178, 38.0562791 ] } },
{ "type": "Feature", "properties": { "Name": "Bluegrass Distillers", "Address": "501 W 6th St #165", "City": "Lexington", "State": "KY", "Type": "Craft", "Longitude": -84.4940836, "Latitude": 38.0601833 }, "geometry": { "type": "Point", "coordinates": [ -84.4940836, 38.0601833 ] } },
{ "type": "Feature", "properties": { "Name": "Boone County Distiling Co", "Address": "10601 Toebben Dr", "City": "Independence", "State": "KY", "Type": "Craft", "Longitude": -84.6136, "Latitude": 38.946974 }, "geometry": { "type": "Point", "coordinates": [ -84.6136, 38.946974 ] } },
{ "type": "Feature", "properties": { "Name": "Boundary Oak", "Address": "2000 Boundary Oak Dr", "City": "Radcliff", "State": "KY", "Type": "Craft", "Longitude": -85.9133497, "Latitude": 37.7974332 }, "geometry": { "type": "Point", "coordinates": [ -85.9133497, 37.7974332 ] } },
{ "type": "Feature", "properties": { "Name": "Casey Jones", "Address": "2815 Witty Ln", "City": "Hopkinsville", "State": "KY", "Type": "Craft", "Longitude": -87.5567601, "Latitude": 36.9128165 }, "geometry": { "type": "Point", "coordinates": [ -87.5567601, 36.9128165 ] } },
{ "type": "Feature", "properties": { "Name": "Dueling Grounds Distillery", "Address": "208 Harding Rd", "City": "Franklin", "State": "KY", "Type": "Craft", "Longitude": -86.5746132, "Latitude": 36.7063024 }, "geometry": { "type": "Point", "coordinates": [ -86.5746132, 36.7063024 ] } },
{ "type": "Feature", "properties": { "Name": "Hartfield & Company Distillery", "Address": "320 Pleasant St #1819", "City": "Paris", "State": "KY", "Type": "Craft", "Longitude": -84.24894, "Latitude": 38.211741 }, "geometry": { "type": "Point", "coordinates": [ -84.24894, 38.211741 ] } },
{ "type": "Feature", "properties": { "Name": "James E. Pepper", "Address": "1228 Manchester St #100", "City": "Lexington", "State": "KY", "Type": "Craft", "Longitude": -84.5219828, "Latitude": 38.0565376 }, "geometry": { "type": "Point", "coordinates": [ -84.5219828, 38.0565376 ] } },
{ "type": "Feature", "properties": { "Name": "Jeptha Creed Distillery", "Address": "500 Gordon Ln", "City": "Shelbyville", "State": "KY", "Type": "Craft", "Longitude": -85.2669327, "Latitude": 38.1895382 }, "geometry": { "type": "Point", "coordinates": [ -85.2669327, 38.1895382 ] } },
{ "type": "Feature", "properties": { "Name": "Kentucky Artisan Distillery", "Address": "6230 Old Lagrange Rd", "City": "Crestwood", "State": "KY", "Type": "Craft", "Longitude": -85.463371, "Latitude": 38.336085 }, "geometry": { "type": "Point", "coordinates": [ -85.463371, 38.336085 ] } },
{ "type": "Feature", "properties": { "Name": "Kentucky Peerless Distilling Company", "Address": "120 N 10th St", "City": "Louisville", "State": "KY", "Type": "Craft", "Longitude": -85.766811, "Latitude": 38.258608 }, "geometry": { "type": "Point", "coordinates": [ -85.766811, 38.258608 ] } },
{ "type": "Feature", "properties": { "Name": "Limestone Branch Distillery", "Address": "1280 Veterans Menorial Hwy", "City": "Lebanon", "State": "KY", "Type": "Craft", "Longitude": -85.26572, "Latitude": 37.585507 }, "geometry": { "type": "Point", "coordinates": [ -85.26572, 37.585507 ] } },
{ "type": "Feature", "properties": { "Name": "MB Roland Distillery", "Address": "137 Barkers Mill Rd", "City": "Pembroke", "State": "KY", "Type": "Craft", "Longitude": -87.392098, "Latitude": 36.702426 }, "geometry": { "type": "Point", "coordinates": [ -87.392098, 36.702426 ] } },
{ "type": "Feature", "properties": { "Name": "Neeley Family Distillery", "Address": "4360 KY-1130", "City": "Sparta", "State": "KY", "Type": "Craft", "Longitude": -84.9474477, "Latitude": 38.707024 }, "geometry": { "type": "Point", "coordinates": [ -84.9474477, 38.707024 ] } },
{ "type": "Feature", "properties": { "Name": "New Rift Distillery", "Address": "24 Distillery Way", "City": "Newport", "State": "KY", "Type": "Craft", "Longitude": -84.4910933, "Latitude": 39.100664 }, "geometry": { "type": "Point", "coordinates": [ -84.4910933, 39.100664 ] } },
{ "type": "Feature", "properties": { "Name": "Old Pogue Distillery", "Address": "715 Germantown Rd", "City": "Maysville", "State": "KY", "Type": "Craft", "Longitude": -83.782209, "Latitude": 38.6619829 }, "geometry": { "type": "Point", "coordinates": [ -83.782209, 38.6619829 ] } },
{ "type": "Feature", "properties": { "Name": "Preservation Distillery", "Address": "426 Sutherland Rd", "City": "Bardstown", "State": "KY", "Type": "Craft", "Longitude": -85.4946685, "Latitude": 37.7870071 }, "geometry": { "type": "Point", "coordinates": [ -85.4946685, 37.7870071 ] } },
{ "type": "Feature", "properties": { "Name": "Second Sight Spirits", "Address": "301 Elm St", "City": "Ludlow", "State": "KY", "Type": "Craft", "Longitude": -84.5506257, "Latitude": 39.0935273 }, "geometry": { "type": "Point", "coordinates": [ -84.5506257, 39.0935273 ] } },
{ "type": "Feature", "properties": { "Name": "Wilderness Trail Distillery", "Address": "4095 Lebanon Rd", "City": "Danville", "State": "KY", "Type": "Craft", "Longitude": -84.8283682, "Latitude": 37.6208461 }, "geometry": { "type": "Point", "coordinates": [ -84.8283682, 37.6208461 ] } },
{ "type": "Feature", "properties": { "Name": "Willett Distillery", "Address": "1869 Loretto Rd", "City": "Bardstown", "State": "KY", "Type": "Craft", "Longitude": -85.4634753, "Latitude": 37.7847585 }, "geometry": { "type": "Point", "coordinates": [ -85.4634753, 37.7847585 ] } },
{ "type": "Feature", "properties": { "Name": null, "Address": null, "City": null, "State": null, "Type": null, "Longitude": null, "Latitude": null }, "geometry": null },
{ "type": "Feature", "properties": { "Name": null, "Address": null, "City": null, "State": null, "Type": null, "Longitude": null, "Latitude": null }, "geometry": null },
{ "type": "Feature", "properties": { "Name": "http://www.poi-factory.com/node/2931", "Address": null, "City": null, "State": null, "Type": null, "Longitude": null, "Latitude": null }, "geometry": null }
]
}
